[
  {"iso":"AF","name":"Afghanistan","nameAr":"أفغانستان","region":"Asia-Pacific","subregion":"Southern Asia","lat":33.93,"lng":67.71,"memberships":{"oic":true}},
  {"iso":"AL","name":"Albania","nameAr":"ألبانيا","region":"Europe","subregion":"Southern Europe","lat":41.15,"lng":20.17,"memberships":{}},
  {"iso":"DZ","name":"Algeria","nameAr":"الجزائر","region":"MENA","subregion":"Northern Africa","lat":28.03,"lng":1.66,"memberships":{"oic":true,"au":true,"arabLeague":true}},
  {"iso":"AD","name":"Andorra","nameAr":"أندورا","region":"Europe","subregion":"Southern Europe","lat":42.55,"lng":1.6,"memberships":{}},
  {"iso":"AO","name":"Angola","nameAr":"أنغولا","region":"Africa","subregion":"Middle Africa","lat":-11.2,"lng":17.87,"memberships":{"au":true}},
  {"iso":"AG","name":"Antigua and Barbuda","nameAr":"أنتيغوا وبربودا","region":"Americas","subregion":"Caribbean","lat":17.06,"lng":-61.8,"memberships":{"sids":true}},
  {"iso":"AR","name":"Argentina","nameAr":"الأرجنتين","region":"Americas","subregion":"South America","lat":-38.42,"lng":-63.62,"memberships":{"g20":true,"gpai":true}},
  {"iso":"AM","name":"Armenia","nameAr":"أرمينيا","region":"Europe","subregion":"Western Asia","lat":40.07,"lng":45.04,"memberships":{}},
  {"iso":"AU","name":"Australia","nameAr":"أستراليا","region":"Asia-Pacific","subregion":"Oceania","lat":-25.27,"lng":133.78,"memberships":{"oecd":true,"g20":true,"gpai":true}},
  {"iso":"AT","name":"Austria","nameAr":"النمسا","region":"Europe","subregion":"Western Europe","lat":47.52,"lng":14.55,"memberships":{"oecd":true,"eu":true}},
  {"iso":"AZ","name":"Azerbaijan","nameAr":"أذربيجان","region":"Europe","subregion":"Western Asia","lat":40.14,"lng":47.58,"memberships":{"oic":true}},
  {"iso":"BS","name":"Bahamas","nameAr":"الباهاما","region":"Americas","subregion":"Caribbean","lat":25.03,"lng":-77.4,"memberships":{"sids":true}},
  {"iso":"BH","name":"Bahrain","nameAr":"البحرين","region":"MENA","subregion":"Western Asia","lat":26.07,"lng":50.55,"memberships":{"oic":true,"gcc":true,"arabLeague":true}},
  {"iso":"BD","name":"Bangladesh","nameAr":"بنغلاديش","region":"Asia-Pacific","subregion":"Southern Asia","lat":23.68,"lng":90.36,"memberships":{"oic":true}},
  {"iso":"BB","name":"Barbados","nameAr":"بربادوس","region":"Americas","subregion":"Caribbean","lat":13.19,"lng":-59.54,"memberships":{"sids":true}},
  {"iso":"BY","name":"Belarus","nameAr":"بيلاروسيا","region":"Europe","subregion":"Eastern Europe","lat":53.71,"lng":27.95,"memberships":{}},
  {"iso":"BE","name":"Belgium","nameAr":"بلجيكا","region":"Europe","subregion":"Western Europe","lat":50.5,"lng":4.47,"memberships":{"oecd":true,"eu":true,"gpai":true}},
  {"iso":"BZ","name":"Belize","nameAr":"بليز","region":"Americas","subregion":"Central America","lat":17.19,"lng":-88.5,"memberships":{"sids":true}},
  {"iso":"BJ","name":"Benin","nameAr":"بنين","region":"Africa","subregion":"Western Africa","lat":9.31,"lng":2.31,"memberships":{"oic":true,"au":true}},
  {"iso":"BT","name":"Bhutan","nameAr":"بوتان","region":"Asia-Pacific","subregion":"Southern Asia","lat":27.51,"lng":90.43,"memberships":{}},
  {"iso":"BO","name":"Bolivia","nameAr":"بوليفيا","region":"Americas","subregion":"South America","lat":-16.29,"lng":-63.59,"memberships":{}},
  {"iso":"BA","name":"Bosnia and Herzegovina","nameAr":"البوسنة والهرسك","region":"Europe","subregion":"Southern Europe","lat":43.92,"lng":17.68,"memberships":{}},
  {"iso":"BW","name":"Botswana","nameAr":"بوتسوانا","region":"Africa","subregion":"Southern Africa","lat":-22.33,"lng":24.68,"memberships":{"au":true}},
  {"iso":"BR","name":"Brazil","nameAr":"البرازيل","region":"Americas","subregion":"South America","lat":-14.24,"lng":-51.93,"memberships":{"g20":true,"gpai":true,"brics":true}},
  {"iso":"BN","name":"Brunei","nameAr":"بروناي","region":"Asia-Pacific","subregion":"South-Eastern Asia","lat":4.54,"lng":114.73,"memberships":{"oic":true,"asean":true}},
  {"iso":"BG","name":"Bulgaria","nameAr":"بلغاريا","region":"Europe","subregion":"Eastern Europe","lat":42.73,"lng":25.49,"memberships":{"eu":true}},
  {"iso":"BF","name":"Burkina Faso","nameAr":"بوركينا فاسو","region":"Africa","subregion":"Western Africa","lat":12.24,"lng":-1.56,"memberships":{"oic":true,"au":true}},
  {"iso":"BI","name":"Burundi","nameAr":"بوروندي","region":"Africa","subregion":"Eastern Africa","lat":-3.37,"lng":29.92,"memberships":{"au":true}},
  {"iso":"CV","name":"Cabo Verde","nameAr":"الرأس الأخضر","region":"Africa","subregion":"Western Africa","lat":16.0,"lng":-24.01,"memberships":{"au":true,"sids":true}},
  {"iso":"KH","name":"Cambodia","nameAr":"كمبوديا","region":"Asia-Pacific","subregion":"South-Eastern Asia","lat":12.57,"lng":104.99,"memberships":{"asean":true}},
  {"iso":"CM","name":"Cameroon","nameAr":"الكاميرون","region":"Africa","subregion":"Middle Africa","lat":7.37,"lng":12.35,"memberships":{"oic":true,"au":true}},
  {"iso":"CA","name":"Canada","nameAr":"كندا","region":"Americas","subregion":"Northern America","lat":56.13,"lng":-106.35,"memberships":{"oecd":true,"g7":true,"g20":true,"gpai":true}},
  {"iso":"CF","name":"Central African Republic","nameAr":"جمهورية أفريقيا الوسطى","region":"Africa","subregion":"Middle Africa","lat":6.61,"lng":20.94,"memberships":{"au":true}},
  {"iso":"TD","name":"Chad","nameAr":"تشاد","region":"Africa","subregion":"Middle Africa","lat":15.45,"lng":18.73,"memberships":{"oic":true,"au":true}},
  {"iso":"CL","name":"Chile","nameAr":"تشيلي","region":"Americas","subregion":"South America","lat":-35.68,"lng":-71.54,"memberships":{"oecd":true}},
  {"iso":"CN","name":"China","nameAr":"الصين","region":"Asia-Pacific","subregion":"Eastern Asia","lat":35.86,"lng":104.2,"memberships":{"g20":true,"brics":true}},
  {"iso":"CO","name":"Colombia","nameAr":"كولومبيا","region":"Americas","subregion":"South America","lat":4.57,"lng":-74.3,"memberships":{"oecd":true}},
  {"iso":"KM","name":"Comoros","nameAr":"جزر القمر","region":"MENA","subregion":"Eastern Africa","lat":-11.88,"lng":43.87,"memberships":{"oic":true,"au":true,"arabLeague":true,"sids":true}},
  {"iso":"CG","name":"Congo","nameAr":"الكونغو","region":"Africa","subregion":"Middle Africa","lat":-0.23,"lng":15.83,"memberships":{"au":true}},
  {"iso":"CD","name":"DR Congo","nameAr":"الكونغو الديمقراطية","region":"Africa","subregion":"Middle Africa","lat":-4.04,"lng":21.76,"memberships":{"au":true}},
  {"iso":"CR","name":"Costa Rica","nameAr":"كوستاريكا","region":"Americas","subregion":"Central America","lat":9.75,"lng":-83.75,"memberships":{"oecd":true}},
  {"iso":"CI","name":"Côte d'Ivoire","nameAr":"ساحل العاج","region":"Africa","subregion":"Western Africa","lat":7.54,"lng":-5.55,"memberships":{"oic":true,"au":true}},
  {"iso":"HR","name":"Croatia","nameAr":"كرواتيا","region":"Europe","subregion":"Southern Europe","lat":45.1,"lng":15.2,"memberships":{"eu":true}},
  {"iso":"CU","name":"Cuba","nameAr":"كوبا","region":"Americas","subregion":"Caribbean","lat":21.52,"lng":-77.78,"memberships":{"sids":true}},
  {"iso":"CY","name":"Cyprus","nameAr":"قبرص","region":"Europe","subregion":"Western Asia","lat":35.13,"lng":33.43,"memberships":{"eu":true}},
  {"iso":"CZ","name":"Czechia","nameAr":"التشيك","region":"Europe","subregion":"Eastern Europe","lat":49.82,"lng":15.47,"memberships":{"oecd":true,"eu":true}},
  {"iso":"DK","name":"Denmark","nameAr":"الدنمارك","region":"Europe","subregion":"Northern Europe","lat":56.26,"lng":9.5,"memberships":{"oecd":true,"eu":true,"gpai":true}},
  {"iso":"DJ","name":"Djibouti","nameAr":"جيبوتي","region":"MENA","subregion":"Eastern Africa","lat":11.83,"lng":42.59,"memberships":{"oic":true,"au":true,"arabLeague":true}},
  {"iso":"DM","name":"Dominica","nameAr":"دومينيكا","region":"Americas","subregion":"Caribbean","lat":15.41,"lng":-61.37,"memberships":{"sids":true}},
  {"iso":"DO","name":"Dominican Republic","nameAr":"جمهورية الدومينيكان","region":"Americas","subregion":"Caribbean","lat":18.74,"lng":-70.16,"memberships":{}},
  {"iso":"EC","name":"Ecuador","nameAr":"الإكوادور","region":"Americas","subregion":"South America","lat":-1.83,"lng":-78.18,"memberships":{}},
  {"iso":"EG","name":"Egypt","nameAr":"مصر","region":"MENA","subregion":"Northern Africa","lat":26.82,"lng":30.8,"memberships":{"oic":true,"au":true,"arabLeague":true,"brics":true}},
  {"iso":"SV","name":"El Salvador","nameAr":"السلفادور","region":"Americas","subregion":"Central America","lat":13.79,"lng":-88.9,"memberships":{}},
  {"iso":"GQ","name":"Equatorial Guinea","nameAr":"غينيا الاستوائية","region":"Africa","subregion":"Middle Africa","lat":1.65,"lng":10.27,"memberships":{"au":true}},
  {"iso":"ER","name":"Eritrea","nameAr":"إريتريا","region":"Africa","subregion":"Eastern Africa","lat":15.18,"lng":39.78,"memberships":{"au":true}},
  {"iso":"EE","name":"Estonia","nameAr":"إستونيا","region":"Europe","subregion":"Northern Europe","lat":58.6,"lng":25.01,"memberships":{"oecd":true,"eu":true}},
  {"iso":"SZ","name":"Eswatini","nameAr":"إسواتيني","region":"Africa","subregion":"Southern Africa","lat":-26.52,"lng":31.47,"memberships":{"au":true}},
  {"iso":"ET","name":"Ethiopia","nameAr":"إثيوبيا","region":"Africa","subregion":"Eastern Africa","lat":9.15,"lng":40.49,"memberships":{"au":true,"brics":true}},
  {"iso":"FJ","name":"Fiji","nameAr":"فيجي","region":"Asia-Pacific","subregion":"Oceania","lat":-17.71,"lng":178.07,"memberships":{"sids":true}},
  {"iso":"FI","name":"Finland","nameAr":"فنلندا","region":"Europe","subregion":"Northern Europe","lat":61.92,"lng":25.75,"memberships":{"oecd":true,"eu":true}},
  {"iso":"FR","name":"France","nameAr":"فرنسا","region":"Europe","subregion":"Western Europe","lat":46.23,"lng":2.21,"memberships":{"oecd":true,"eu":true,"g7":true,"g20":true,"gpai":true}},
  {"iso":"GA","name":"Gabon","nameAr":"الغابون","region":"Africa","subregion":"Middle Africa","lat":-0.8,"lng":11.61,"memberships":{"oic":true,"au":true}},
  {"iso":"GM","name":"Gambia","nameAr":"غامبيا","region":"Africa","subregion":"Western Africa","lat":13.44,"lng":-15.31,"memberships":{"oic":true,"au":true}},
  {"iso":"GE","name":"Georgia","nameAr":"جورجيا","region":"Europe","subregion":"Western Asia","lat":42.32,"lng":43.36,"memberships":{}},
  {"iso":"DE","name":"Germany","nameAr":"ألمانيا","region":"Europe","subregion":"Western Europe","lat":51.17,"lng":10.45,"memberships":{"oecd":true,"eu":true,"g7":true,"g20":true,"gpai":true}},
  {"iso":"GH","name":"Ghana","nameAr":"غانا","region":"Africa","subregion":"Western Africa","lat":7.95,"lng":-1.02,"memberships":{"au":true}},
  {"iso":"GR","name":"Greece","nameAr":"اليونان","region":"Europe","subregion":"Southern Europe","lat":39.07,"lng":21.82,"memberships":{"oecd":true,"eu":true}},
  {"iso":"GD","name":"Grenada","nameAr":"غرينادا","region":"Americas","subregion":"Caribbean","lat":12.26,"lng":-61.6,"memberships":{"sids":true}},
  {"iso":"GT","name":"Guatemala","nameAr":"غواتيمالا","region":"Americas","subregion":"Central America","lat":15.78,"lng":-90.23,"memberships":{}},
  {"iso":"GN","name":"Guinea","nameAr":"غينيا","region":"Africa","subregion":"Western Africa","lat":9.95,"lng":-9.7,"memberships":{"oic":true,"au":true}},
  {"iso":"GW","name":"Guinea-Bissau","nameAr":"غينيا بيساو","region":"Africa","subregion":"Western Africa","lat":11.8,"lng":-15.18,"memberships":{"oic":true,"au":true,"sids":true}},
  {"iso":"GY","name":"Guyana","nameAr":"غيانا","region":"Americas","subregion":"South America","lat":4.86,"lng":-58.93,"memberships":{"oic":true,"sids":true}},
  {"iso":"HT","name":"Haiti","nameAr":"هايتي","region":"Americas","subregion":"Caribbean","lat":18.97,"lng":-72.29,"memberships":{"sids":true}},
  {"iso":"HN","name":"Honduras","nameAr":"هندوراس","region":"Americas","subregion":"Central America","lat":15.2,"lng":-86.24,"memberships":{}},
  {"iso":"HU","name":"Hungary","nameAr":"المجر","region":"Europe","subregion":"Eastern Europe","lat":47.16,"lng":19.5,"memberships":{"oecd":true,"eu":true}},
  {"iso":"IS","name":"Iceland","nameAr":"آيسلندا","region":"Europe","subregion":"Northern Europe","lat":64.96,"lng":-19.02,"memberships":{"oecd":true}},
  {"iso":"IN","name":"India","nameAr":"الهند","region":"Asia-Pacific","subregion":"Southern Asia","lat":20.59,"lng":78.96,"memberships":{"g20":true,"gpai":true,"brics":true}},
  {"iso":"ID","name":"Indonesia","nameAr":"إندونيسيا","region":"Asia-Pacific","subregion":"South-Eastern Asia","lat":-0.79,"lng":113.92,"memberships":{"oic":true,"g20":true,"asean":true}},
  {"iso":"IR","name":"Iran","nameAr":"إيران","region":"MENA","subregion":"Western Asia","lat":32.43,"lng":53.69,"memberships":{"oic":true,"brics":true}},
  {"iso":"IQ","name":"Iraq","nameAr":"العراق","region":"MENA","subregion":"Western Asia","lat":33.22,"lng":43.68,"memberships":{"oic":true,"arabLeague":true}},
  {"iso":"IE","name":"Ireland","nameAr":"أيرلندا","region":"Europe","subregion":"Northern Europe","lat":53.14,"lng":-7.69,"memberships":{"oecd":true,"eu":true,"gpai":true}},
  {"iso":"IL","name":"Israel","nameAr":"إسرائيل","region":"MENA","subregion":"Western Asia","lat":31.05,"lng":34.85,"memberships":{"oecd":true}},
  {"iso":"IT","name":"Italy","nameAr":"إيطاليا","region":"Europe","subregion":"Southern Europe","lat":41.87,"lng":12.57,"memberships":{"oecd":true,"eu":true,"g7":true,"g20":true,"gpai":true}},
  {"iso":"JM","name":"Jamaica","nameAr":"جامايكا","region":"Americas","subregion":"Caribbean","lat":18.11,"lng":-77.3,"memberships":{"sids":true}},
  {"iso":"JP","name":"Japan","nameAr":"اليابان","region":"Asia-Pacific","subregion":"Eastern Asia","lat":36.2,"lng":138.25,"memberships":{"oecd":true,"g7":true,"g20":true,"gpai":true}},
  {"iso":"JO","name":"Jordan","nameAr":"الأردن","region":"MENA","subregion":"Western Asia","lat":30.59,"lng":36.24,"memberships":{"oic":true,"arabLeague":true}},
  {"iso":"KZ","name":"Kazakhstan","nameAr":"كازاخستان","region":"Asia-Pacific","subregion":"Central Asia","lat":48.02,"lng":66.92,"memberships":{"oic":true}},
  {"iso":"KE","name":"Kenya","nameAr":"كينيا","region":"Africa","subregion":"Eastern Africa","lat":-0.02,"lng":37.91,"memberships":{"au":true}},
  {"iso":"KI","name":"Kiribati","nameAr":"كيريباتي","region":"Asia-Pacific","subregion":"Oceania","lat":-3.37,"lng":-168.73,"memberships":{"sids":true}},
  {"iso":"KP","name":"North Korea","nameAr":"كوريا الشمالية","region":"Asia-Pacific","subregion":"Eastern Asia","lat":40.34,"lng":127.51,"memberships":{}},
  {"iso":"KR","name":"South Korea","nameAr":"كوريا الجنوبية","region":"Asia-Pacific","subregion":"Eastern Asia","lat":35.91,"lng":127.77,"memberships":{"oecd":true,"g20":true,"gpai":true}},
  {"iso":"KW","name":"Kuwait","nameAr":"الكويت","region":"MENA","subregion":"Western Asia","lat":29.31,"lng":47.48,"memberships":{"oic":true,"gcc":true,"arabLeague":true}},
  {"iso":"KG","name":"Kyrgyzstan","nameAr":"قيرغيزستان","region":"Asia-Pacific","subregion":"Central Asia","lat":41.2,"lng":74.77,"memberships":{"oic":true}},
  {"iso":"LA","name":"Laos","nameAr":"لاوس","region":"Asia-Pacific","subregion":"South-Eastern Asia","lat":19.86,"lng":102.5,"memberships":{"asean":true}},
  {"iso":"LV","name":"Latvia","nameAr":"لاتفيا","region":"Europe","subregion":"Northern Europe","lat":56.88,"lng":24.6,"memberships":{"oecd":true,"eu":true}},
  {"iso":"LB","name":"Lebanon","nameAr":"لبنان","region":"MENA","subregion":"Western Asia","lat":33.85,"lng":35.86,"memberships":{"arabLeague":true}},
  {"iso":"LS","name":"Lesotho","nameAr":"ليسوتو","region":"Africa","subregion":"Southern Africa","lat":-29.61,"lng":28.23,"memberships":{"au":true}},
  {"iso":"LR","name":"Liberia","nameAr":"ليبيريا","region":"Africa","subregion":"Western Africa","lat":6.43,"lng":-9.43,"memberships":{"au":true}},
  {"iso":"LY","name":"Libya","nameAr":"ليبيا","region":"MENA","subregion":"Northern Africa","lat":26.34,"lng":17.23,"memberships":{"oic":true,"au":true,"arabLeague":true}},
  {"iso":"LI","name":"Liechtenstein","nameAr":"ليختنشتاين","region":"Europe","subregion":"Western Europe","lat":47.17,"lng":9.56,"memberships":{}},
  {"iso":"LT","name":"Lithuania","nameAr":"ليتوانيا","region":"Europe","subregion":"Northern Europe","lat":55.17,"lng":23.88,"memberships":{"oecd":true,"eu":true}},
  {"iso":"LU","name":"Luxembourg","nameAr":"لوكسمبورغ","region":"Europe","subregion":"Western Europe","lat":49.82,"lng":6.13,"memberships":{"oecd":true,"eu":true}},
  {"iso":"MG","name":"Madagascar","nameAr":"مدغشقر","region":"Africa","subregion":"Eastern Africa","lat":-18.77,"lng":46.87,"memberships":{"au":true}},
  {"iso":"MW","name":"Malawi","nameAr":"ملاوي","region":"Africa","subregion":"Eastern Africa","lat":-13.25,"lng":34.3,"memberships":{"au":true}},
  {"iso":"MY","name":"Malaysia","nameAr":"ماليزيا","region":"Asia-Pacific","subregion":"South-Eastern Asia","lat":4.21,"lng":101.98,"memberships":{"oic":true,"asean":true}},
  {"iso":"MV","name":"Maldives","nameAr":"المالديف","region":"Asia-Pacific","subregion":"Southern Asia","lat":3.2,"lng":73.22,"memberships":{"oic":true,"sids":true}},
  {"iso":"ML","name":"Mali","nameAr":"مالي","region":"Africa","subregion":"Western Africa","lat":17.57,"lng":-4.0,"memberships":{"oic":true,"au":true}},
  {"iso":"MT","name":"Malta","nameAr":"مالطا","region":"Europe","subregion":"Southern Europe","lat":35.94,"lng":14.38,"memberships":{"eu":true,"sids":true}},
  {"iso":"MH","name":"Marshall Islands","nameAr":"جزر مارشال","region":"Asia-Pacific","subregion":"Oceania","lat":7.13,"lng":171.18,"memberships":{"sids":true}},
  {"iso":"MR","name":"Mauritania","nameAr":"موريتانيا","region":"MENA","subregion":"Western Africa","lat":21.01,"lng":-10.94,"memberships":{"oic":true,"au":true,"arabLeague":true}},
  {"iso":"MU","name":"Mauritius","nameAr":"موريشيوس","region":"Africa","subregion":"Eastern Africa","lat":-20.35,"lng":57.55,"memberships":{"au":true,"sids":true}},
  {"iso":"MX","name":"Mexico","nameAr":"المكسيك","region":"Americas","subregion":"Central America","lat":23.63,"lng":-102.55,"memberships":{"oecd":true,"g20":true,"gpai":true}},
  {"iso":"FM","name":"Micronesia","nameAr":"ميكرونيزيا","region":"Asia-Pacific","subregion":"Oceania","lat":7.43,"lng":150.55,"memberships":{"sids":true}},
  {"iso":"MD","name":"Moldova","nameAr":"مولدوفا","region":"Europe","subregion":"Eastern Europe","lat":47.41,"lng":28.37,"memberships":{}},
  {"iso":"MC","name":"Monaco","nameAr":"موناكو","region":"Europe","subregion":"Western Europe","lat":43.75,"lng":7.41,"memberships":{}},
  {"iso":"MN","name":"Mongolia","nameAr":"منغوليا","region":"Asia-Pacific","subregion":"Eastern Asia","lat":46.86,"lng":103.85,"memberships":{}},
  {"iso":"ME","name":"Montenegro","nameAr":"الجبل الأسود","region":"Europe","subregion":"Southern Europe","lat":42.71,"lng":19.37,"memberships":{}},
  {"iso":"MA","name":"Morocco","nameAr":"المغرب","region":"MENA","subregion":"Northern Africa","lat":31.79,"lng":-7.09,"memberships":{"oic":true,"arabLeague":true}},
  {"iso":"MZ","name":"Mozambique","nameAr":"موزمبيق","region":"Africa","subregion":"Eastern Africa","lat":-18.67,"lng":35.53,"memberships":{"oic":true,"au":true}},
  {"iso":"MM","name":"Myanmar","nameAr":"ميانمار","region":"Asia-Pacific","subregion":"South-Eastern Asia","lat":21.91,"lng":95.96,"memberships":{"asean":true}},
  {"iso":"NA","name":"Namibia","nameAr":"ناميبيا","region":"Africa","subregion":"Southern Africa","lat":-22.96,"lng":18.49,"memberships":{"au":true}},
  {"iso":"NR","name":"Nauru","nameAr":"ناورو","region":"Asia-Pacific","subregion":"Oceania","lat":-0.52,"lng":166.93,"memberships":{"sids":true}},
  {"iso":"NP","name":"Nepal","nameAr":"نيبال","region":"Asia-Pacific","subregion":"Southern Asia","lat":28.39,"lng":84.12,"memberships":{}},
  {"iso":"NL","name":"Netherlands","nameAr":"هولندا","region":"Europe","subregion":"Western Europe","lat":52.13,"lng":5.29,"memberships":{"oecd":true,"eu":true,"gpai":true}},
  {"iso":"NZ","name":"New Zealand","nameAr":"نيوزيلندا","region":"Asia-Pacific","subregion":"Oceania","lat":-40.9,"lng":174.89,"memberships":{"oecd":true,"gpai":true}},
  {"iso":"NI","name":"Nicaragua","nameAr":"نيكاراغوا","region":"Americas","subregion":"Central America","lat":12.87,"lng":-85.21,"memberships":{}},
  {"iso":"NE","name":"Niger","nameAr":"النيجر","region":"Africa","subregion":"Western Africa","lat":17.61,"lng":8.08,"memberships":{"oic":true,"au":true}},
  {"iso":"NG","name":"Nigeria","nameAr":"نيجيريا","region":"Africa","subregion":"Western Africa","lat":9.08,"lng":8.68,"memberships":{"oic":true,"au":true}},
  {"iso":"MK","name":"North Macedonia","nameAr":"مقدونيا الشمالية","region":"Europe","subregion":"Southern Europe","lat":41.51,"lng":21.75,"memberships":{}},
  {"iso":"NO","name":"Norway","nameAr":"النرويج","region":"Europe","subregion":"Northern Europe","lat":60.47,"lng":8.47,"memberships":{"oecd":true}},
  {"iso":"OM","name":"Oman","nameAr":"عُمان","region":"MENA","subregion":"Western Asia","lat":21.47,"lng":55.98,"memberships":{"oic":true,"gcc":true,"arabLeague":true}},
  {"iso":"PK","name":"Pakistan","nameAr":"باكستان","region":"Asia-Pacific","subregion":"Southern Asia","lat":30.38,"lng":69.35,"memberships":{"oic":true}},
  {"iso":"PW","name":"Palau","nameAr":"بالاو","region":"Asia-Pacific","subregion":"Oceania","lat":7.51,"lng":134.58,"memberships":{"sids":true}},
  {"iso":"PS","name":"Palestine","nameAr":"فلسطين","region":"MENA","subregion":"Western Asia","lat":31.95,"lng":35.23,"memberships":{"oic":true,"arabLeague":true}},
  {"iso":"PA","name":"Panama","nameAr":"بنما","region":"Americas","subregion":"Central America","lat":8.54,"lng":-80.78,"memberships":{}},
  {"iso":"PG","name":"Papua New Guinea","nameAr":"بابوا غينيا الجديدة","region":"Asia-Pacific","subregion":"Oceania","lat":-6.31,"lng":143.96,"memberships":{"sids":true}},
  {"iso":"PY","name":"Paraguay","nameAr":"باراغواي","region":"Americas","subregion":"South America","lat":-23.44,"lng":-58.44,"memberships":{}},
  {"iso":"PE","name":"Peru","nameAr":"بيرو","region":"Americas","subregion":"South America","lat":-9.19,"lng":-75.02,"memberships":{}},
  {"iso":"PH","name":"Philippines","nameAr":"الفلبين","region":"Asia-Pacific","subregion":"South-Eastern Asia","lat":12.88,"lng":121.77,"memberships":{"asean":true}},
  {"iso":"PL","name":"Poland","nameAr":"بولندا","region":"Europe","subregion":"Eastern Europe","lat":51.92,"lng":19.15,"memberships":{"oecd":true,"eu":true,"gpai":true}},
  {"iso":"PT","name":"Portugal","nameAr":"البرتغال","region":"Europe","subregion":"Southern Europe","lat":39.4,"lng":-8.22,"memberships":{"oecd":true,"eu":true}},
  {"iso":"QA","name":"Qatar","nameAr":"قطر","region":"MENA","subregion":"Western Asia","lat":25.35,"lng":51.18,"memberships":{"oic":true,"gcc":true,"arabLeague":true}},
  {"iso":"RO","name":"Romania","nameAr":"رومانيا","region":"Europe","subregion":"Eastern Europe","lat":45.94,"lng":24.97,"memberships":{"eu":true}},
  {"iso":"RU","name":"Russia","nameAr":"روسيا","region":"Europe","subregion":"Eastern Europe","lat":61.52,"lng":105.32,"memberships":{"g20":true,"brics":true}},
  {"iso":"RW","name":"Rwanda","nameAr":"رواندا","region":"Africa","subregion":"Eastern Africa","lat":-1.94,"lng":29.87,"memberships":{"au":true}},
  {"iso":"KN","name":"Saint Kitts and Nevis","nameAr":"سانت كيتس ونيفيس","region":"Americas","subregion":"Caribbean","lat":17.36,"lng":-62.78,"memberships":{"sids":true}},
  {"iso":"LC","name":"Saint Lucia","nameAr":"سانت لوسيا","region":"Americas","subregion":"Caribbean","lat":13.91,"lng":-60.98,"memberships":{"sids":true}},
  {"iso":"VC","name":"Saint Vincent","nameAr":"سانت فنسنت","region":"Americas","subregion":"Caribbean","lat":12.98,"lng":-61.29,"memberships":{"sids":true}},
  {"iso":"WS","name":"Samoa","nameAr":"ساموا","region":"Asia-Pacific","subregion":"Oceania","lat":-13.76,"lng":-172.1,"memberships":{"sids":true}},
  {"iso":"SM","name":"San Marino","nameAr":"سان مارينو","region":"Europe","subregion":"Southern Europe","lat":43.94,"lng":12.46,"memberships":{}},
  {"iso":"ST","name":"São Tomé and Príncipe","nameAr":"ساو تومي وبرينسيبي","region":"Africa","subregion":"Middle Africa","lat":0.19,"lng":6.61,"memberships":{"au":true,"sids":true}},
  {"iso":"SA","name":"Saudi Arabia","nameAr":"المملكة العربية السعودية","region":"MENA","subregion":"Western Asia","lat":23.89,"lng":45.08,"memberships":{"oic":true,"g20":true,"gcc":true,"arabLeague":true,"brics":true}},
  {"iso":"SN","name":"Senegal","nameAr":"السنغال","region":"Africa","subregion":"Western Africa","lat":14.5,"lng":-14.45,"memberships":{"oic":true,"au":true,"gpai":true}},
  {"iso":"RS","name":"Serbia","nameAr":"صربيا","region":"Europe","subregion":"Southern Europe","lat":44.02,"lng":21.01,"memberships":{"gpai":true}},
  {"iso":"SC","name":"Seychelles","nameAr":"سيشل","region":"Africa","subregion":"Eastern Africa","lat":-4.68,"lng":55.49,"memberships":{"au":true,"sids":true}},
  {"iso":"SL","name":"Sierra Leone","nameAr":"سيراليون","region":"Africa","subregion":"Western Africa","lat":8.46,"lng":-11.78,"memberships":{"oic":true,"au":true}},
  {"iso":"SG","name":"Singapore","nameAr":"سنغافورة","region":"Asia-Pacific","subregion":"South-Eastern Asia","lat":1.35,"lng":103.82,"memberships":{"asean":true,"gpai":true}},
  {"iso":"SK","name":"Slovakia","nameAr":"سلوفاكيا","region":"Europe","subregion":"Eastern Europe","lat":48.67,"lng":19.7,"memberships":{"oecd":true,"eu":true}},
  {"iso":"SI","name":"Slovenia","nameAr":"سلوفينيا","region":"Europe","subregion":"Southern Europe","lat":46.15,"lng":14.99,"memberships":{"oecd":true,"eu":true,"gpai":true}},
  {"iso":"SB","name":"Solomon Islands","nameAr":"جزر سليمان","region":"Asia-Pacific","subregion":"Oceania","lat":-9.65,"lng":160.16,"memberships":{"sids":true}},
  {"iso":"SO","name":"Somalia","nameAr":"الصومال","region":"MENA","subregion":"Eastern Africa","lat":5.15,"lng":46.2,"memberships":{"oic":true,"au":true,"arabLeague":true}},
  {"iso":"ZA","name":"South Africa","nameAr":"جنوب أفريقيا","region":"Africa","subregion":"Southern Africa","lat":-30.56,"lng":22.94,"memberships":{"g20":true,"au":true,"brics":true}},
  {"iso":"SS","name":"South Sudan","nameAr":"جنوب السودان","region":"Africa","subregion":"Eastern Africa","lat":6.88,"lng":31.31,"memberships":{"au":true}},
  {"iso":"ES","name":"Spain","nameAr":"إسبانيا","region":"Europe","subregion":"Southern Europe","lat":40.46,"lng":-3.75,"memberships":{"oecd":true,"eu":true,"gpai":true}},
  {"iso":"LK","name":"Sri Lanka","nameAr":"سريلانكا","region":"Asia-Pacific","subregion":"Southern Asia","lat":7.87,"lng":80.77,"memberships":{}},
  {"iso":"SD","name":"Sudan","nameAr":"السودان","region":"MENA","subregion":"Northern Africa","lat":12.86,"lng":30.22,"memberships":{"oic":true,"au":true,"arabLeague":true}},
  {"iso":"SR","name":"Suriname","nameAr":"سورينام","region":"Americas","subregion":"South America","lat":3.92,"lng":-56.03,"memberships":{"oic":true,"sids":true}},
  {"iso":"SE","name":"Sweden","nameAr":"السويد","region":"Europe","subregion":"Northern Europe","lat":60.13,"lng":18.64,"memberships":{"oecd":true,"eu":true}},
  {"iso":"CH","name":"Switzerland","nameAr":"سويسرا","region":"Europe","subregion":"Western Europe","lat":46.82,"lng":8.23,"memberships":{"oecd":true}},
  {"iso":"SY","name":"Syria","nameAr":"سوريا","region":"MENA","subregion":"Western Asia","lat":34.8,"lng":38.99,"memberships":{"arabLeague":true}},
  {"iso":"TJ","name":"Tajikistan","nameAr":"طاجيكستان","region":"Asia-Pacific","subregion":"Central Asia","lat":38.86,"lng":71.28,"memberships":{"oic":true}},
  {"iso":"TZ","name":"Tanzania","nameAr":"تنزانيا","region":"Africa","subregion":"Eastern Africa","lat":-6.37,"lng":34.89,"memberships":{"au":true}},
  {"iso":"TH","name":"Thailand","nameAr":"تايلاند","region":"Asia-Pacific","subregion":"South-Eastern Asia","lat":15.87,"lng":100.99,"memberships":{"asean":true}},
  {"iso":"TL","name":"Timor-Leste","nameAr":"تيمور الشرقية","region":"Asia-Pacific","subregion":"South-Eastern Asia","lat":-8.87,"lng":125.73,"memberships":{"asean":true,"sids":true}},
  {"iso":"TG","name":"Togo","nameAr":"توغو","region":"Africa","subregion":"Western Africa","lat":8.62,"lng":1.21,"memberships":{"oic":true,"au":true}},
  {"iso":"TO","name":"Tonga","nameAr":"تونغا","region":"Asia-Pacific","subregion":"Oceania","lat":-21.18,"lng":-175.2,"memberships":{"sids":true}},
  {"iso":"TT","name":"Trinidad and Tobago","nameAr":"ترينيداد وتوباغو","region":"Americas","subregion":"Caribbean","lat":10.69,"lng":-61.22,"memberships":{"sids":true}},
  {"iso":"TN","name":"Tunisia","nameAr":"تونس","region":"MENA","subregion":"Northern Africa","lat":33.89,"lng":9.54,"memberships":{"oic":true,"au":true,"arabLeague":true}},
  {"iso":"TR","name":"Türkiye","nameAr":"تركيا","region":"Europe","subregion":"Western Asia","lat":38.96,"lng":35.24,"memberships":{"oecd":true,"g20":true,"oic":true,"gpai":true}},
  {"iso":"TM","name":"Turkmenistan","nameAr":"تركمانستان","region":"Asia-Pacific","subregion":"Central Asia","lat":38.97,"lng":59.56,"memberships":{"oic":true}},
  {"iso":"TV","name":"Tuvalu","nameAr":"توفالو","region":"Asia-Pacific","subregion":"Oceania","lat":-7.11,"lng":177.65,"memberships":{"sids":true}},
  {"iso":"UG","name":"Uganda","nameAr":"أوغندا","region":"Africa","subregion":"Eastern Africa","lat":1.37,"lng":32.29,"memberships":{"oic":true,"au":true}},
  {"iso":"UA","name":"Ukraine","nameAr":"أوكرانيا","region":"Europe","subregion":"Eastern Europe","lat":48.38,"lng":31.17,"memberships":{}},
  {"iso":"AE","name":"United Arab Emirates","nameAr":"الإمارات","region":"MENA","subregion":"Western Asia","lat":23.42,"lng":53.85,"memberships":{"oic":true,"gcc":true,"arabLeague":true,"brics":true}},
  {"iso":"GB","name":"United Kingdom","nameAr":"المملكة المتحدة","region":"Europe","subregion":"Northern Europe","lat":55.38,"lng":-3.44,"memberships":{"oecd":true,"g7":true,"g20":true,"gpai":true}},
  {"iso":"US","name":"United States","nameAr":"الولايات المتحدة","region":"Americas","subregion":"Northern America","lat":37.09,"lng":-95.71,"memberships":{"oecd":true,"g7":true,"g20":true,"gpai":true}},
  {"iso":"UY","name":"Uruguay","nameAr":"أوروغواي","region":"Americas","subregion":"South America","lat":-32.52,"lng":-55.77,"memberships":{}},
  {"iso":"UZ","name":"Uzbekistan","nameAr":"أوزبكستان","region":"Asia-Pacific","subregion":"Central Asia","lat":41.38,"lng":64.59,"memberships":{"oic":true}},
  {"iso":"VU","name":"Vanuatu","nameAr":"فانواتو","region":"Asia-Pacific","subregion":"Oceania","lat":-15.38,"lng":166.96,"memberships":{"sids":true}},
  {"iso":"VE","name":"Venezuela","nameAr":"فنزويلا","region":"Americas","subregion":"South America","lat":6.42,"lng":-66.59,"memberships":{}},
  {"iso":"VN","name":"Viet Nam","nameAr":"فيتنام","region":"Asia-Pacific","subregion":"South-Eastern Asia","lat":14.06,"lng":108.28,"memberships":{"asean":true}},
  {"iso":"YE","name":"Yemen","nameAr":"اليمن","region":"MENA","subregion":"Western Asia","lat":15.55,"lng":48.52,"memberships":{"oic":true,"arabLeague":true}},
  {"iso":"ZM","name":"Zambia","nameAr":"زامبيا","region":"Africa","subregion":"Eastern Africa","lat":-13.13,"lng":27.85,"memberships":{"au":true}},
  {"iso":"ZW","name":"Zimbabwe","nameAr":"زيمبابوي","region":"Africa","subregion":"Eastern Africa","lat":-19.02,"lng":29.15,"memberships":{"au":true}}
]
